[
    {
        "id": 1,
        "name": "Redcoco Hair Studio",
        "phone_number": "07920401832",
        "email_address": "redcoco@live.co.uk",
        "location": {
            "address": "146 Wallows Ln",
            "post_code": "WS1 4LZ",
            "city": "Walsall",
            "region": "West Midlands",
            "country": "England"
        },
        "social_links": {
            "website": "www.redcocohairstudio.co.uk",
            "instagram": ""
        },
        "services": [
            "Colour"
        ]
    },
    {
        "id": 2,
        "name": "DD Empire",
        "phone_number": "01214291772",
        "email_address": "ddempire@hotmail.com",
        "location": {
            "address": "592 Bearwood Rd",
            "post_code": "B66 4BW",
            "city": "Birmingham",
            "region": "West Midlands",
            "country": "England"
        },
        "social_links": {
            "website": "www.ddempire.co.uk",
            "instagram": ""
        },
        "services": [
            "Trims",
            "Extensions"
        ]
    },
    {
        "id": 3,
        "name": "Hairfyx",
        "phone_number": "07786068698",
        "email_address": "hairfyx.contact@gmail.com",
        "location": {
            "address": "27 Acfold Rd",
            "post_code": "B20 1HD",
            "city": "Birmingham",
            "region": "West Midlands",
            "country": "England"
        },
        "services": [
            "Braids",
            "Trims",
            "Extensions"
        ]
    },
    {
        "id": 4,
        "name": "Natrulique Hair & Holistic",
        "phone_number": "01214480984",
        "email_address": "hairfyx.contact@gmail.com",
        "location": {
            "address": "1427 Pershore Rd",
            "post_code": "B30 2JL",
            "city": "Birmingham",
            "region": "West Midlands",
            "country": "England"
        },
        "services": []
    },
    {
        "id": 5,
        "name": "SG Hair",
        "phone_number": "01216475000",
        "email_address": "appointments@sghair.uk",
        "location": {
            "address": "297A Walsall Rd",
            "post_code": "B42 1TY",
            "city": "Birmingham",
            "region": "West Midlands",
            "country": "England"
        },
        "services": [
            "Keratin"
        ]
    },
    {
        "id": 6,
        "name": "Tia's Hair Salon",
        "phone_number": "01213778255",
        "email_address": "tia@tiahairsalon.com",
        "location": {
            "address": "15 York Rd",
            "post_code": "B23 6TE",
            "city": "Birmingham",
            "region": "West Midlands",
            "country": "England"
        },
        "services": [
            "Curl Set",
            "Twist Out"
        ]
    }
]