[
    {
        "name": "Siren Asylum",
        "phone_number": "07784967677",
        "email_address": "info@sirenasylum.com",
        "location": {
            "address": "24 Missouri Ave",
            "post_code": "M50 2NP",
            "city": "Manchester",
            "region": "North West",
            "country": "England"
        },
        "social_links": {
            "website": "www.sirenasylum.co.uk",
            "instagram": "www.instagram.com/sirenasylumfitness",
            "facebook:": "www.facebook.com/sirenasylum"
        },
        "logo": "/Users/lana.gordon/Documents/Bench-Projects/aeriform/frontend/src/assets/studio-logos/siren-asylum.png",
        "services": [
            "Aerial Hoop",
            "Aerial Silks"
        ]
    },
    {
        "name": "AYC Studios",
        "phone_number": "07507797220",
        "email_address": "aerialyogicircus@gmail.com",
        "location": {
            "address": "Unit 10B, Robins Business Park, Bagnall St, West Bromwich",
            "post_code": "DY4 7BS",
            "city": "Birmingham",
            "region": "West Midlands",
            "country": "England"
        },
        "social_links": {
            "website": "www.aycstudios.co.uk",
            "instagram": "www.instagram.com/aycstudios",
            "facebook:": "www.facebook.com/AYcircus"
        },
        "logo": "/Users/lana.gordon/Documents/Bench-Projects/aeriform/frontend/src/assets/studio-logos/ayc-studios.png",
        "services": [
            "Aerial Hoop"
        ]
    },
    {
        "name": "Body Synergy",
        "phone_number": "07507797220",
        "email_address": "bodysynergymanagement@gmail.com",
        "location": {
            "address": "One Fitness Academy, 509 Aldrige Road, Great Barr",
            "post_code": "B44 8NA",
            "city": "Birmingham",
            "region": "West Midlands",
            "country": "England"
        },
        "social_links": {
            "website": "www.bodysynergy.co.uk/",
            "instagram": "www.instagram.com/bodysynergypole",
            "facebook:": "www.facebook.com/poledancebirmingham"
        },
        "logo": "/Users/lana.gordon/Documents/Bench-Projects/aeriform/frontend/src/assets/studio-logos/body-synergy.png",
        "services": [
            "Aerial Hoop"
        ]
    },
    {
        "name": "K Pole Solihull",
        "phone_number": "07800793337",
        "email_address": "kpoleshirley@hotmail.com",
        "location": {
            "address": "YogaHaven, Radway Road",
            "post_code": "B90 4NR",
            "city": "Birmingham",
            "region": "West Midlands",
            "country": "England"
        },
        "social_links": {
            "website": "www.kpole.co.uk",
            "instagram": "www.instagram.com/kpole_danceandfitness",
            "facebook:": "www.facebook.com/KpoleShirley"
        },
        "logo": "/Users/lana.gordon/Documents/Bench-Projects/aeriform/frontend/src/assets/studio-logos/k-pole.png",
        "services": [
            "Aerial Hoop"
        ]
    },
    {
        "name": "K Pole Cradely Heath",
        "phone_number": "07800793337",
        "email_address": "kpoleshirley@hotmail.com",
        "location": {
            "address": "5 Market Square, Cradley Heath",
            "post_code": "B64 5HH",
            "city": "Birmingham",
            "region": "West Midlands",
            "country": "England"
        },
        "social_links": {
            "website": "www.kpole.co.uk",
            "instagram": "www.instagram.com/kpole_danceandfitness",
            "facebook:": "www.facebook.com/KpoleShirley"
        },
        "logo": "/Users/lana.gordon/Documents/Bench-Projects/aeriform/frontend/src/assets/studio-logos/k-pole.png",
        "services": [
            "Aerial Hoop"
        ]
    }
]